"","fldCruiseName","fldCruiseStationNumber","fldShotLonDecimalDegrees","fldShotLatDecimalDegrees","fldShotShipsHeading","fldShotDepth","Warp_m","fldGearCode","SweepLngt_m","fldValidityCode","fldWindSpeed","ObsHeave_m","ObsPitch_deg","ObsRoll_deg","door_dist_Median","door_dist_sd","wing_dist_Median","wing_dist_sd","TS_fish_density_Median","TS_fish_density_sd","TS_opening_Median","TS_opening_sd","TS_clearance_Median","TS_clearance_sd","TS_height_Median","TS_height_sd","TEY_fish_density_Median","TEY_fish_density_sd","TEY_height_Median","TEY_height_sd","TEY_opening_Median","TEY_opening_sd","TEY_clearance_Median","TEY_clearance_sd","TSP_along_speed_Median","TSP_along_speed_sd","TSP_across_speed_Median","TSP_across_speed_sd"
"1","IGFS2018",1,-9.634,54.776,38,102,366,"101020101","L","V","26",2.65,5.46,2.65,104.38,1.51841577699235,21.63,0.26327883542427,7,1.32723738922752,4.31,0.26435331147625,0,0.0305917846653774,4.31,0.275634687626309,0,0.762189437982409,3.81,0.127491483810126,3.81,0.100978327334446,0,0.062452684834103,2.45,0.100187658007558,-0.06,0.0293540352527246
"2","IGFS2018",2,-10.096,54.756,25,110,390,"101020101","L","V","14",4.3,4.32,4.3,108.06,1.69372797162846,22.5,0.743069615427513,7,1.73693981269734,4.31,0.222115217064048,0,0,4.31,0.226289727930139,0,1.53107168056946,4.06,1.01104746404139,3.88,0.169318022391972,0,1.00231112492463,2.26,0.119099205198474,-0.08,0.0297870476344181
"3","IGFS2018",3,-10.192,54.949,48,244,759,"101020101","L","V","15",4.39,6.78,4.39,122.06,28.7863999471046,24.13,0.512564473281981,4,1.28280578789087,4.19,0.369155622627629,0,0.0477913807118571,4.19,0.413813858571245,0,1.54656370540528,3.88,1.07643641039156,3.69,0.208418449829241,0,1.05824139163736,2.06,0.146691506223087,0.01,0.0325989897963578
"4","IGFS2018",4,-10.078,55.071,39,234,691,"101020101","L","V","16",4.73,4.3,4.73,121.38,4.50467758614023,23.94,0.37818431645625,1,1.54153443822466,4.06,0.538859267439189,0,0.0893239886234698,4.06,0.78450211883149,0,1.33509727678997,3.81,0.934515074653089,3.69,0.277479670181875,0,0.924804218531198,2.31,0.230397601246383,-0.19,0.0337293524993019
"5","IGFS2018",5,-9.358,55.099,336,105,366,"101020101","L","V","15",5.39,5.69,5.39,105.38,2.36600729943029,22,0.494293674276167,1,2.94416050652613,4.25,12.4898846687467,0,0.362734784611981,4.25,11.1514635788212,0,1.2532275110207,3.81,0.692804562733264,3.81,0.334425980102565,0,0.48466248642262,2.39,0.160406255582204,-0.08,0.0744417166838278
"6","IGFS2018",6,-9.611,55.219,51,119,402,"101020101","L","V","11",4,5.82,4,112.31,3.65497810347167,23.44,0.613274053528505,2,2.18037015329051,4,0.208615650330846,0,0.00934961385175895,4,0.233043189945762,0,0.982915448556091,3.75,1.05599022605201,3.63,0.138437402698613,0,1.09718720183288,2.39,0.0938896031140008,0.01,0.0397229894409063
"7","IGFS2018",7,-9.252,55.405,3,126,402,"101020101","L","V","16",4.35,5.21,4.35,109.88,1.6054993010243,23.19,0.432726761088289,6,1.84198375131138,4.13,0.33793931622302,0,0.0158597490299075,4.13,0.345394107772868,0,1.42464208808809,3.81,0.960141652983514,3.75,0.233047039355916,0,0.957973939597084,2.24,0.136887601659959,-0.01,0.0319639661128711
"8","IGFS2018",8,-8.918,55.446,42,92,336,"101020101","L","V","18",4.08,5.41,4.08,105,14.4142153057455,21.94,1.59878193740298,1,1.37537500713675,4.19,2.43882082045959,0,6.93974115889024,4.19,6.19569322218805,0,0.940138605107117,3.88,1.27695921647316,3.75,0.31029293191983,0,1.20087685790644,2.36,0.222245044879094,0.02,0.0540464023850196
"9","IGFS2018",9,-8.862,55.626,309,102,349,"101020101","L","V","16",3.94,8.77,3.94,106.06,1.8443957314046,22.38,9.13200456674902,6,1.48338441079061,4.19,0.373392302773859,0,0.0924939220105213,4.22,0.408457530891245,0,0.828844646013379,3.88,1.13407032087183,3.81,0.163015512186995,0,1.09449575339807,2.26,0.206785458852325,-0.08,0.0296021994495477
"10","IGFS2018",10,-8.993,55.792,8,132,427,"101020101","L","V","16",3.1,4.38,3.1,110.31,1.53461562833332,22.94,0.580786664586581,7,0.955228026031986,4.13,0.953771482452959,0,0.45318586774161,4.13,0.985893144686607,0,1.5788931036266,4.565,1.18678433638065,3.69,0.310997563171755,0,1.1721503703434,2.33,0.262701938525429,-0.04,0.0603354989265478
"11","IGFS2018",11,-9.325,55.778,181,278,827,"101020101","L","V","16",3.38,4.76,3.38,127.31,2.82089559723117,24.63,0.575162243641713,0,1.29792981419186,3.69,0.116884528155415,0,0,3.69,0.112657804018319,0,0.843003051641997,3.5,1.21511466495926,3.38,0.177217686177681,0,1.20747364852707,2.49,0.0729097841660567,-0.11,0.0416981983598556
"12","IGFS2018",12,-9.22,55.997,15,245,745,"101020101","L","V","20",2.79,4.69,2.79,125.81,5.25296421303697,24.56,0.52116248483857,2,1.5157333683663,3.81,0.713074209509678,0,0.0661330782416837,3.88,0.677910788607363,0,1.09856653794845,3.88,1.28719029185331,3.5,0.515314321394599,0,1.23223944635616,2.42,0.211616722460165,0.03,0.0487578701626886
"13","IGFS2018",13,-9.189,56.174,10,228,691,"101020101","L","V","13",3.8,4.74,3.8,121.69,60.7109240787589,24.56,1.33420660767414,1,1.29967239947656,3.81,0.355016020606753,0,0.0669416347410637,3.81,0.322714618798356,0,0.772201248672814,4.06,1.30015204418155,3.5,0.45436061963675,0,1.31022610779698,2.46,0.0871637346243391,0.06,0.0404438669277874
"14","IGFS2018",14,-8.868,56.009,112,130,450,"101020101","L","V","16",2.64,3.3,2.64,115.56,20.2059754343662,23.06,0.35291777034894,1,2.51413248823461,3.88,0.321494507887101,0,0.0206517293326708,3.88,0.327562925158504,0,0.769023958965106,3.5,1.16346968705411,3.5,0.368917886141518,0,0.957035428241841,2.61,0.0622698928396821,-0.01,0.0257674718574214
"15","IGFS2018",15,-8.375,56.311,79,145,462,"101020101","L","V","10",2.05,4.29,2.05,111.63,1.78955564715009,22.5,0.338221334296189,1,1.60786275306839,4.03,1.16596269932764,0,0.969759960067289,4.06,1.68008233400681,0,0.728703758230489,3.75,0.690751996051441,3.69,0.289733131892958,0,0.469471561066498,2.385,0.0752831710888752,-0.06,0.0327451648640625
"16","IGFS2018",16,-8.171,56.023,227,154,485,"101020101","L","V","17",2.98,3.89,2.98,112.25,0.919959108127311,22.81,0.198719005573646,4,1.97375318707514,4.06,0.290612900862193,0,0.00774541504432152,4.06,0.164098754140812,0,1.4582391309344,3.75,0.0737204301940054,3.75,0.081352135942281,0,0,2.34,0.0686066885639041,-0.01,0.0477067525470088
"17","IGFS2018",17,-7.964,55.868,101,155,486,"101020101","L","V","14",1.88,3.38,1.88,111.25,1.30057970268077,22.69,0.264773422040776,3,1.70448775220279,4.06,0.313131297173212,0,0.0042966892442366,4.06,0.233623201912827,0,0.947730767756288,3.69,0.108059329911827,3.69,0.0865452029134628,0,0,2.25,0.179543401056094,-0.11,0.10712149947024
"18","IGFS2018",18,-8.315,55.825,257,145,486,"101020101","L","V","33",2.49,6.24,2.49,113.88,1.95751527802914,22.63,0.3161377032623,6,1.71214587464932,4,0.224034853359124,0,0.0660824248219985,4,0.207428339957593,0,1.36939603255258,3.63,0.378553954093618,3.63,0.238427275421662,0,0.243506376082912,2.51,0.174877596055981,0,0.0234994244664302
"19","IGFS2018",19,-8.267,55.645,238,93,336,"101020101","L","V","28",1.99,5.76,1.99,107.63,9.67760146454891,21.75,13.2462305498254,7,1.48548061618603,4.13,0.73974314614216,0,0.178701677214777,4.13,0.431816080384904,0,1.4434374071403,4.5,1.72040126382431,3.75,0.397075248178743,0,1.75310058775939,2.53,0.180686844703915,-0.08,0.042759332646342
"20","IGFS2018",21,-7.266,55.73,260,59,246,"101020101","S","V","24",3.2,8.42,3.2,30.69,38.3829092583165,21.19,0.950078139297196,0,1.08505610373963,4.5,0.792091339068706,0,0.239440295355513,4.44,0.920679002127045,0,1.71431592915118,4.25,0.453492659292157,4.25,0.421433189604413,0,0.189482377620114,2.19,0.274106756000852,-0.03,0.116761522510036
"21","IGFS2018",22,-7.582,55.617,95,70,273,"101020101","S","V","12",2.15,5.71,2.15,80.63,6.23486141833838,21.25,19.9625874962772,3,1.61196902724533,4.25,0.255300295874424,0,0.00595042135158174,4.19,0.244479504747361,0,1.45055928727967,4.19,1.24711572254359,3.81,0.301969642362432,0,1.21765043364856,2.51,0.540460805238795,0.03,0.583458256343737
"22","IGFS2018",26,-6.324,55.342,19,173,540,"101020101","L","V","20",2.95,2.38,2.95,115.69,2.02281920232915,22.81,1.02472635922632,3,1.17394226702861,3.69,0.215177035870177,0,0.00528262514330416,3.63,0.200471625167667,0,1.33113046416226,5.19,1.34444354866778,3.31,0.146486902822105,1.75,1.39624022938452,2.53,0.0720885838601403,0.1,0.103160062630204
"23","IGFS2018",27,-6.484,55.297,236,145,462,"101020101","L","V","21",3.29,2.42,3.29,109.5,5.73248834063254,25.38,1.97381421624956,3,1.0709329286259,4.13,0.142498394316663,0,0,4.13,0.139036197848383,0,0.741091290557674,3.69,0.482733746299224,3.69,0.167249059261512,0,0.351284802771523,1.91,0.100384201268573,0.03,0.177706308569857
"24","IGFS2018",28,-7.026,55.507,305,75,286,"101020101","S","V","17",3.39,9.7,3.39,83.75,18.3292327274622,21.88,0.263362242109106,0,0.936458420715286,4,0.33473843744437,0,0.0337230893194374,4,0.488615093053191,0,0.805386845764491,3.75,1.44374765066959,3.5,0.181276306881636,0,1.52228910383394,2.9,0.104497926353603,-0.06,0.0374482265033532
"25","IGFS2018",29,-6.682,55.893,16,60,246,"101020101","S","V","7",3.98,2.09,3.98,76.63,14.2183302830443,20.94,0.494014786981217,0,1.47778971232799,4.19,1.40327625014971,0,9.15425013552022,4.25,2.92622141931738,0,0.583459965991578,3.72,0.137999319684142,3.75,0.12395802272483,0,0.414578098794425,2.285,0.15021413287133,0.04,0.033367645684346
"26","IGFS2018",30,-6.982,56.052,274,81,298,"101020101","S","V","NULL",3.16,5.66,3.16,80.63,0.712400327789861,21.56,0.175678938811791,1,1.18480793433782,4.25,0.210740709371363,0,0,4.25,0.682534782354548,0,1.00369621958873,3.81,0.087746384817276,3.81,0.0694369108892204,0,0.0620757445243505,2.39,0.128722369230627,-0.08,0.101077841900093
"27","IGFS2018",32,-6.771,56.398,208,80,298,"101020101","S","V","16",2.29,3.01,2.29,80.875,1.1530762414003,21.63,0.326413380239933,0,0.941048425588972,4.13,0.110130615521968,0,0,4.13,0.124970215887363,0,1.42102014257858,3.75,0.136170581030116,3.75,0.139499967612381,0,0.0468292905790847,2.47,0.0973002182640244,0.05,0.0288694047315527
"28","IGFS2018",33,-7.03,56.322,229,88,324,"101020101","S","V","21",3.63,4.37,3.63,76.19,12.379801095778,20.88,0.513636965502705,1,1.27451568993969,4.19,1.15266949955163,0,7.86735829548211,4.25,2.22826199679582,0,1.05223512013419,3.69,0.13094528119282,3.69,0.117816897158424,0,0.324090608043834,2.28,0.126712738678713,0.03,0.035790441614427
"29","IGFS2018",34,-7.915,55.21,327,26,120,"101020101","S","V","15",1.31,3.43,1.31,30.81,46.7265197314929,17.06,0.913693232832852,1,1.5101388944463,4.81,18.2603348944954,0,0,4.81,21.5236048031539,0,1.0735547931518,4.44,0.236778387704632,4.47,0.273024890335278,0,0.345960206561596,2.49,0.0923881364979713,0.04,0.0388052867530728
"30","IGFS2018",35,-8.195,55.357,310,77,311,"101020101","S","I","21",1.93,2.84,1.93,82.625,15.2117648505,21.75,12.2600341499794,7,0.645555532233463,4.31,2.78271906318539,0,0.773780737168795,4.38,0.187334157425873,0,1.30779106141519,4.22,1.26903392140203,3.81,0.286449207948246,0.5,1.34621198922722,2.33,0.182920302571179,-0.015,0.0497584678080199
"31","IGFS2018",36,-8.615,55.465,156,101,349,"101020101","L","V","21",2.37,3.34,2.37,104.56,3.26880141943557,21.345,0.276859709422116,2,2.30516279472927,4.06,0.644387522771124,0,0,4.095,0.15650291992274,0,0.604193662237811,3.69,0.507443910234322,3.69,0.0933100620338861,0,0.553270127606202,0,0,0,0
"32","IGFS2018",37,-8.696,55.274,257,97,349,"101020101","L","V","30",3.47,7.56,3.47,106.47,0.963516373769023,21.595,0.308862998943127,4,2.68408291139987,3.94,26.4717544180234,0,0,3.94,32.4497431448031,0,0.801822661453005,3.63,0.109769239043731,3.63,0.162825827338707,0,0.489584278707402,0.47,0.258650343127551,-0.17,1.00233228023445
"33","IGFS2018",38,-9.017,54.661,173,89,324,"101020101","L","V","7",3.35,1.36,3.35,101.41,2.34982267744869,21,0.462836734496918,1,1.52013285322338,4.31,1.07414488723216,0,0.183964334930602,4.31,1.06520211886551,0,1.11166557211874,3.88,0.347390876999239,3.81,0.17597522348126,0,0.319015025925961,2.35,0.152948755094998,-0.08,0.0770706416244871
"34","IGFS2018",39,-9.661,54.505,260,97,349,"101020101","L","V","19",6.5,5.95,6.5,103.31,1.52834650502323,20.94,0.236899780620507,7,0.587976075294608,4.38,5.52693045060489,0,0.0600567913047158,4.38,9.00105261971142,0,0.871473381869831,4.06,0.964803553178788,4.06,0.265198934183084,0,0.989597072703138,2.38,0.256896413314788,-0.08,0.0331245380804242
"35","IGFS2018",42,-10.237,53.291,312,120,415,"101010101","L","V","29",6.88,7.49,6.88,118.44,1.25068741661716,23.75,0.347698440076151,1,0.876950755477862,4,0.800308950360597,0,0,4,0.878103076499658,0,1.05209503639149,3.75,0.143072261920847,3.69,0.108200366669061,0,0,2.135,0.132816124453462,-0.05,0.0358059716131355
"36","IGFS2018",44,-10.161,54.431,329,113,390,"101010101","L","V","21",5.26,7.85,5.26,111,2.23331802745706,22.44,1.34318995285407,7,1.05537190329659,4.13,1.64904162694447,0,0.546950204010023,4.19,1.77118187833631,0,1.04493409340953,4.06,0.258989929530302,4.06,0.226533768179566,0,0.0374765844497931,2.1,0.210393574161613,0.02,0.0687462863629354
"37","IGFS2018",45,-10.315,54.301,245,117,402,"101010101","L","V","18",5.6,8.96,5.6,112.81,1.82559338788319,22.25,0.273788503712076,6,1.32760477374168,4.06,0.663584726498799,0,0.296051752551682,4.06,0.792077784504062,0,1.00623847649366,4,0.339851909325064,3.88,0.308572015755517,0,0,2.36,0.503956403843907,-0.1,0.0421086363457897
"38","IGFS2018",46,-10.678,54.175,198,180,554,"101010101","L","V","16",6.14,5.18,6.14,121.22,2.73422869123044,24.31,0.296587428196312,6,0,4.31,1.97494487840225,0,0,4.25,1.62699309209939,3,2.19143139100953,4.03,0.607368964323606,4.19,0.427994680621519,0,0.67922357440803,2.09,0.134707796642178,-0.015,0.0315945293637092
"39","IGFS2018",47,-8.824,54.396,345,58,233,"101010101","S","V","14",2.46,4.29,2.46,30.44,43.4359672428574,21.38,0.232134194961119,2,1.53260238042918,4.19,22.5644121527311,0,0.0107733733700495,4.19,19.5203514457956,4,1.36291960788223,4.56,0.209211029589649,4.56,0.204589865308654,0,0.397421305032448,2.345,0.18155736537821,-0.03,0.13876634159974
"40","IGFS2018",50,-9.427,54.474,314,85,324,"101010101","L","V","24",3.16,5.82,3.16,106.88,12.5189144946098,21.25,0.217828222724661,5,1.67027857211741,4.25,2.12656276613512,0,0.171147630387229,4.25,8.26429663712265,0,1.5194254987178,4.16,1.04011324622454,4.16,0.239005503436483,0,0.282639181346639,2.31,0.082412935221917,-0.14,0.0372512018055768
"41","IGFS2018",51,-10.998,54.247,170,NA,909,"101010101","L","V","24",7.1,8.86,7.1,136.63,7.30711275358816,25.44,0.659070990037712,0,1.15365413985134,3.81,1.19661956232463,0,0.103576170809873,3.81,1.79909741310233,0,0.586764833467525,3.75,0.401809663581062,3.75,0.412481375555894,0,0.110936377556454,2.26,0.55529939788312,-0.02,0.0423029641913104
"42","IGFS2018",52,-11.302,54.007,200,270,800,"101010101","L","V","14",5.24,4.44,5.24,132.5,2.72984188225759,24.81,0.387720351164432,2,2.33221306037532,3.69,0.733043849318821,0,0.814357541334398,3.845,2.18417467879383,0,1.03550987525682,3.88,0.878304479957229,4,0.454216962233345,0,0.545237021337358,2.23,0.168963683871213,0,0.0337916787245086
"43","IGFS2018",53,-11.505,53.955,261,308,870,"101010101","L","V","20",4.95,8.11,4.95,131.845,4.27635310434205,25.13,0.275031503726988,4,1.20936629890194,3.94,0.741427759091349,0,0.218515133655231,4,2.74722281899181,0,1.2653241861939,3.81,0.247521495543927,3.81,0.158626497128941,0,0,2.1,0.098482742522295,0.035,0.042311012445858
"44","IGFS2018",54,-11.417,53.832,215,262,773,"101010101","L","V","21",5.21,7.1,5.21,132.19,1.4311136186607,24.88,0.488967763440711,0,0.832050294337844,3.88,0.164560486892066,0,0.0180906806746658,3.81,0.147674277745626,0,0.577555549291824,3.75,0.152605675069743,3.72,0.216626693145158,0,0,2.3,0.356819503534724,-0.06,0.0268618311180473
"45","IGFS2018",55,-12.125,53.466,19,319,923,"101010101","L","V","21",3.21,6,3.21,135.25,2.2737363746594,25.5,0.270687051361356,0,1.12712795319232,3.81,0.843734563532057,0,0.0970753837849035,3.81,1.33000457272204,0,1.34053582460011,3.69,0.211013986710642,3.69,0.216877790137973,0,0,2.14,0.320978928478915,-0.01,0.0241048774156255
"46","IGFS2018",56,-11.897,53.608,41,299,882,"101010101","L","V","19",3.7,5.46,3.7,133.88,1.73093976782633,25.25,0.283784984387858,2,1.20820341466623,3.94,0.508823276946241,0,0.29238141157136,3.94,1.30476059352795,0,0.921375426478742,3.75,0.638842256732512,3.75,0.105022575388002,0,0.696428083072884,2.09,0.132844796183447,-0.05,0.0272848869514371
"47","IGFS2018",57,-11.64,53.448,212,200,622,"101010101","L","V","29",4.45,10.88,4.45,126.63,1.50207219033948,24.13,0.486169079795969,1,1.90794647206355,4.06,1.39572649148191,0,0.111901408095206,4,1.75714852170165,0,0.695895841619667,3.81,0.261637199935796,3.81,0.306432660807813,0,0,2.2,0.444840686734865,0.04,0.0217536677587461
"48","IGFS2018",58,-11.903,53.276,214,220,663,"101010101","L","V","28",4.32,9.63,4.32,127.94,4.50517630830009,24.38,0.769086950118194,2,1.30701063416831,4.44,0.355814928239239,0,0.0483589273928388,4.44,1.6036062103418,0,0.936718248696521,4.19,0.387536317218297,4.19,0.353643389574956,0,0,1.88,0.387454525085214,-0.04,0.0399166284860112
"49","IGFS2018",59,-12.013,53.27,183,248,745,"101010101","L","V","20",4.3,10.5,4.3,133.66,2.81418556268162,25.13,0.742800782850289,1,1.41754953834327,4.06,0.916799553209439,0,0.0263427294322246,4.03,0.611446496020894,0,0,3.81,0.346390463318228,3.81,0.343226813872027,0,0,2.15,0.301637335167935,-0.05,0.0403582986575425
"50","IGFS2018",60,-10.942,53.079,292,134,450,"101010101","L","V","33",5.95,4.28,5.95,116.44,2.91167666238507,22.88,0.399846498951,3,1.13816716888219,4.31,1.12961522563491,0,0.278713703440643,4.31,1.05022543188547,0,1.46180008085679,4.13,0.37789999496209,4.13,0.332840721911094,0,0.176524231153612,1.99,0.122677716356465,0,0.0768668905025124
"51","IGFS2018",61,-10.876,53.406,23,139,462,"101010101","L","V","27",4.62,12.33,4.62,114.63,2.36473487484679,22.25,0.431141177238663,5,1.99163944795067,4.345,45.4311227135587,0,1.53556462719839,4.44,46.7019483576916,0,1.57344611018196,3.88,0.775675252034224,3.88,0.297938733069062,0,0.559979234903364,2.13,0.160900861593185,0.03,0.652539249838257
"52","IGFS2018",62,-10.378,53.695,25,95,366,"101010101","L","V","35",7.07,8.91,7.07,112.88,3.1097110061678,22.63,1.26848791859577,1,1.90958182471589,4.25,24.0791191015559,0,0.210662110656686,4.25,19.5101580201318,0,0.838731563285422,3.88,0.53542490787956,3.88,0.358796279054366,0,0.390285622909697,2.23,0.2315826315999,-0.06,0.106294023789107
"53","IGFS2018",63,-10.036,53.84,77,49,220,"101010101","L","V","25",2.63,3.46,2.63,79.06,3.89192605182282,20.94,0.58793435488198,1,2.0563171121404,4.38,3.02483367559567,0,0,4.38,2.901920061825,0,1.68970978674568,4.19,0.200243533674871,4.19,0.243134419125565,0,0,2.25,0.146925746039514,-0.13,0.117152972251263
"54","IGFS2018",64,-11.211,53.226,241,150,474,"101010101","L","V","18",5.6,13.95,5.6,117.56,3.16877902050398,22.5,0.4035571763876,2,1.25986552714836,4,1.38250436915798,0,1.72740584042313,4,3.67232211540173,0,1.34038483037764,3.81,0.921227006671306,3.81,0.412891717047746,0,0.495204098664269,2.29,0.331818505462513,0,0.0386352686373989
"55","IGFS2018",65,-11.642,53.162,175,164,513,"101010101","L","V","18",5.28,6.71,5.28,123.81,1.7863504133275,23.63,0.384693001066345,1,2.15441916045631,3.88,0.177747596332391,0,0,3.88,0.178399654656642,0,1.02698761819001,3.81,0.855117856461942,3.75,0.293110751574722,0,0.688090934067962,2.36,0.107310186797322,0.03,0.0260362029637409
"56","IGFS2018",66,-12.081,52.982,175,238,704,"101010101","L","V","26",5.6,5.39,5.6,131.56,6.12626903001466,24.69,0.589435595748891,1,2.11614825898258,3.88,1.04705514849303,0,0.543381442707416,3.88,1.50852323897099,0,0.891667922820942,3.75,0.237077826162752,3.75,0.301229304188681,0,0.00815692546679606,2.33,0.196324440252285,-0.01,0.0290658505434878
"57","IGFS2018",67,-12.326,53.114,13,320,923,"101010101","L","V","19",6.84,7.18,6.84,22.38,64.4062991295567,25.19,0.374874014213164,0,0.937025320682599,3.81,0.588243086602328,0,0.284593372882622,3.81,0.964607936714138,0,0.633347462281427,3.63,0.33422433602657,3.63,0.239508023045695,0,0.215807176174136,2.32,0.139097160324306,0.04,0.0490387676531163
"58","IGFS2018",68,-10.914,52.748,39,130,427,"101010101","L","V","25",4.78,110.5,4.78,116.03,2.43183252385548,22.69,0.243083968005122,3,1.51245165927962,4.06,0.711802739660318,0,1.47237116798922,4.06,1.53412014358016,1,1.77610446327872,3.88,0.47138806562008,3.88,0.212098851705847,0,0.510635504401011,3.13,0.743125363955444,1.46,0.103299415442534
"59","IGFS2018",69,-10.6,52.679,78,119,416,"101010101","L","V","22",4.25,3.76,4.25,116.845,1.39535338444661,22.63,0.337637711023151,4,1.15890841135067,3.88,1.03081314166391,0,1.87969370077232,3.88,2.55911814037595,0,1.33497373837648,3.69,1.12672604526354,3.69,0.376826133539924,0,0.539392817333984,2.41,0.0789843877458779,0.01,0.0216249956614279
"60","IGFS2018",70,-10.437,52.892,49,114,390,"101010101","L","V","16",4.32,8.51,4.32,113.31,2.35490606872184,22.13,0.341196909217887,0,1.15307937223582,4,0.985331925156668,0,0.710129548479046,4,1.41333680439394,0,0.958042405297451,3.75,0.346512061577962,3.75,0.188539502905466,0,0.22566949916622,2.25,0.176264183215839,0,0.0381660301246766
"61","IGFS2018",71,-10.184,53.064,352,108,390,"101010101","L","V","23",5.32,3.9,5.32,115.94,1.8598762203838,22.81,0.349072410499179,2,1.18067152653832,4,0.869790295957614,0,2.24213632104834,4,2.79870778453345,0,1.72050180445254,3.69,0.450734139738934,3.69,0.369299614076444,0,0.159008510821872,2.27,0.0875334476134737,-0.04,0.0544928302638973
"62","IGFS2018",72,-9.932,53.12,121,92,336,"101010101","L","V","22",4.12,3.21,4.12,108.31,3.8473172253424,21.75,0.690840550628313,2,1.03948492822782,4.25,0.852560754451903,0,0.776157711116142,4.25,1.71855073691198,0,1.50169468688258,4,0.210079923117693,4,0.162956746229615,0,0.110255311972707,2.14,0.189337068892002,-0.05,0.0262953759968406
"63","IGFS2018",74,-9.918,52.922,122,101,366,"101010101","L","V","19",5.89,3.45,5.89,115.38,3.78128948482982,22.88,0.631693915807758,1,1.13086255708304,4.13,1.04759758077772,0,3.15937462573214,4.13,3.94511302577359,0,0.76280665607351,3.81,0.788243938636368,3.81,0.31652098590384,0,0.644064732989452,2.09,0.116279423277519,-0.01,0.0382084931408142
"64","IGFS2018",75,-9.61,52.8,194,60,273,"101010101","S","V","21",8.18,4.59,8.18,72.88,51.7149639506494,21.69,0.288337348979605,2,1.39906072232027,4.19,0.529040524927692,0,0.377719905316981,4.19,0.514802836678142,2,1.7244803783938,4.38,0.173509348231542,4.38,0.177469747708623,0,0,2.14,0.0802649869769804,0.06,0.031636765886421
"65","IGFS2018",76,-10.075,52.583,254,85,324,"101010101","L","V","29",7.82,9.04,7.82,108.53,3.67199980354347,21.81,0.528226699158283,1,1.20939848537725,4.31,1.36876579241489,0,1.56666152148343,4.31,2.85292918849568,0,0.944901255303961,4.06,1.64754600258943,4.06,0.231156789601721,0,1.50948852649344,2.1,0.0913442934717194,0.04,0.0375904701072242
"66","IGFS2018",77,-9.826,52.541,70,29,165,"101010101","L","V","15",3.7,1.54,3.7,71.13,3.03430395997237,19.31,0.51492634666741,2,1.52648523329559,4.69,20.6291090036849,0,0.739290476749037,4.69,23.0328666665466,0,1.21205000008666,4.38,0.357708826209914,4.38,0.256039210902119,0,0.221191461803979,2.29,0.375035506253372,-0.015,0.0485641297046146
"67","IGFS2018",78,-11.482,52.762,219,143,462,"101010101","L","V","14",5.51,8.51,5.51,120.69,24.7640393792962,23.63,0.744328688028652,4,1.64173621682737,3.94,1.15369868017621,0,2.52695729693818,3.88,3.57887979803281,0,1.03347139907832,3.75,0.447998356362003,3.75,0.226845070965155,0,0.27126662652925,0,0,0.15,0.755857129357129
"68","IGFS2018",79,-11.747,52.595,326,175,540,"101010101","L","V","15",6.13,3.25,6.13,117.91,2.07709795010891,22.69,0.344733335045806,4,1.06529303285469,4,1.10587000953875,0,3.66732862357122,4,2.76459735755706,0,1.64215021265959,3.81,0.648551220364488,3.81,0.442536178247833,0,0.260556943311137,2.17,0.0921528461650406,-0.02,0.0290332441549269
"69","IGFS2018",80,-12.168,52.556,334,351,977,"101010101","L","V","24",3.46,6,3.46,131.88,3.05978379866551,24.94,0.294016806242332,3,1.67079468072293,3.81,0.170759087121048,0,0,3.81,0.167514523848185,0,0.855513397228556,3.63,0.152831686355535,3.63,0.142794626816241,0,0,2.13,0.0805556246762489,-0.07,0.0890455459767946
"70","IGFS2018",81,-12.301,52.726,349,368,1087,"101010101","L","V","16",5.02,8.78,5.02,74.81,29.9041924444408,25.47,0.475938755621039,4,1.41040521524482,3.63,0.834322030784932,0,2.0718387232829,3.63,3.05725348566218,0,0.900970794449409,3.38,0.424516576363547,3.38,0.50719168389764,0,0.0281554214735414,2.17,0.104613640332936,0.05,0.0345864890141999
"71","IGFS2018",82,-12.278,52.841,336,329,964,"101010101","L","V","13",4.86,6.21,4.86,133.69,42.1768381030305,25.095,0.450421638993741,1,0.896778056344214,3.69,0.19818309234303,0,0,3.63,0.179449739702885,0,0.793882887813575,3.44,0.178290638604349,3.44,0.201291561463734,0,0,2.24,0.0758374288502579,-0.01,0.022391703759357
"72","IGFS2018",83,-11.834,52.785,358,184,554,"101010101","L","V","15",3.91,4.06,3.91,122.88,2.33923418950252,23.44,0.34598273810107,0,1.00404586952395,3.88,1.06744997310264,0,0.69199931307039,3.88,1.87642031541563,0,0.970943656160075,3.69,0.703556264502041,3.69,0.266088102512761,0,0.521760811647824,2.17,0.205779929181134,-0.06,0.0376088829644319
"73","IGFS2018",84,-11.262,52.899,357,136,450,"101010101","L","V","22",3.67,6.23,3.67,119,3.39113778719473,23,0.395140494632843,4,0.960007184826784,4,1.00577880430178,0,3.47702216809879,4,4.02438161565058,0,1.35500108923649,3.81,0.567954920024043,3.81,0.396468856011678,0,0.382736300274116,2.13,0.0705300102765071,-0.06,0.0749592590074696
"74","IGFS2018",85,-11.065,52.907,166,134,450,"101010101","L","V","27",2.9,3.25,2.9,116.75,1.45050429685202,22.63,0.277744646942881,3,0.775057141714406,4.06,2.19091175150926,0,0.317495641131998,4.06,1.33674221262303,0,1.66718588078598,3.69,0.299479521801806,3.69,0.272554325629328,0,0.219162497510221,2.24,0.124191587705979,0.05,0.0234129974415465
"75","IGFS2018",86,-9.402,53.191,283,41,193,"101010101","S","I","18.1",0,0.29,0,76.75,20.9994198579243,20.44,0.402449963871486,6,0.747295304934846,4.31,0.222869123904089,0,0,4.31,0.233623989748847,3,1.82772313353652,3.88,0.365824838248394,3.88,0.188762322106841,0,0.279602578410683,2.2,0.0705824114430204,-0.03,0.0746766762887143
"76","IGFS2018",87,-11.781,52.327,139,277,164,"101010101","L","V","17",0,0.39,0,130.69,1.14303934265659,24.44,0.257923261423575,0,0.952733343690874,3.81,0.159557540432264,0,0,3.81,0.157190198262909,0,0.567592906737579,3.69,0.141536699094545,3.69,0.122372664650683,0,0.0873107047014267,2.15,0.136753940302613,-0.08,0.041238022706387
"77","IGFS2018",88,-11.611,52.137,139,269,200,"101010101","L","V","13",0,0.25,0,132.38,3.32664951641071,24.56,0.501871007379782,1,1.21546808843418,3.56,0.979052807723779,0,3.86128304966203,3.56,3.95858989683522,0,0.686120328190307,3.38,0.709255736943803,3.38,0.615355362618067,0,0.167446417519791,2.41,0.080396752821411,-0.02,0.0398542913558946
"78","IGFS2018",89,-11.801,51.999,182,582,1346,"101010101","L","V","6",0,0.3,0,140.94,5.12057576099759,25.94,0.701514034414869,0,1.14829027304321,3.5,1.54297447488476,0,5.76968452132041,3.5,6.93316944789524,0,0.732440710361774,3.13,1.00525403004352,3.13,0.859074291525579,0,0.245426792268864,2.26,0.118991072907624,0,0.0293846372646898
"79","IGFS2018",90,-11.523,51.911,189,257,759,"101010101","L","V","4",0,0.32,0,130.56,1.75839377280544,24.94,0.31515499058673,0,0.940786666960896,3.63,0.244819814111841,0,0,3.63,0.268025862822886,0,0.430417618901225,3.38,0.273985130628887,3.44,0.254552220406767,0,0,2.13,0.0932577289144821,0.1,0.0576064003049011
"80","IGFS2018",91,-11.401,51.768,189,223,663,"101010101","L","V","6",0,0.31,0,129.13,1.48008189659897,24.63,0.236274095461653,0,0.985623407455551,3.5,0.134081641965475,0,0,3.5,0.134194469206326,0,0.742298583596722,3.31,0.1873824306771,3.31,0.184352057740165,0,0.075125313370595,2.26,0.0643469175742458,0,0.0322628420972677
"81","IGFS2018",92,-11.094,51.592,180,184,554,"101010101","L","V","9",0,0.32,0,124.81,2.38088789624201,24.13,0.316081685600307,1,0.987850011166002,3.56,0.541226104524544,0,11.3558976405435,3.56,12.3791235821682,0,0.724756917429495,3.44,0.247355411869676,3.44,0.115988393005489,0,0.188842485671278,2.23,0.125999879863588,0.03,0.0208837120716635
"82","IGFS2018",93,-10.993,51.812,342,159,499,"101010101","L","V","25",0,0.29,0,122.69,2.16254025811377,23.75,0.361053073472223,3,1.13471740449219,3.75,0.35855393144234,0,0.0268932019767416,3.75,0.366228410270603,0,0.948686369202953,3.63,0.221289532702402,3.63,0.15031735388742,0,0.152224834262583,2.04,0.186004619883834,-0.06,0.0371873364739229
"83","IGFS2018",94,-10.943,52.012,50,141,463,"101010101","L","V","19",3.06,3.71,3.06,120.06,5.16069032943291,23.69,0.302545435247277,3,0.489521538244774,3.91,1.20836246117497,0,0.357235514912437,3.88,1.53644002444545,0,1.40811924526539,3.75,0.406504022543797,3.75,0.546373776637814,0,0.582678227894704,1.91,0.08440897278558,-0.1,0.0544545434036252
"84","IGFS2018",95,-10.677,51.963,82,103.9,390,"101010101","L","V","26",3.73,5.19,3.73,114.94,1.19708051993225,22.94,0.260944041123676,1,1.23388841479083,3.88,0.62509481904984,0,0.0133528285569741,3.88,0.679495257925198,0,1.58325426717805,3.63,0.359830738663133,3.5,0.223704138321079,0,0.279829851778066,2.19,0.258402192382905,0.02,0.0198078562840243
"85","IGFS2018",96,-10.372,51.999,62,60,273,"101010101","S","V","20",1.45,2.78,1.45,84.13,6.49020202986663,21.69,0.285454919611986,0,0.867696274854759,3.88,28.6993159563956,0,0.0061076726272342,3.88,26.0374309381977,0,1.57391055551734,3.75,0.311066099072704,3.75,0.185259970768682,0,0.0570480783796837,2.27,0.160257895333551,-0.08,0.023100611399094
"86","IGFS2018",97,-10.232,51.002,4,129,438,"101010101","L","V","0",3.94,4.39,3.94,124.63,7.47618251726295,24.06,1.07047136522156,1,1.12054346301423,3.56,1.95290251577897,0,19.612427882558,3.56,22.5450696428418,0,0.696346085284531,3.44,0.591597338317276,3.44,0.263355240263557,0,0.37149825499209,2.19,0.226050334799093,0.03,0.0208456826485849
"87","IGFS2018",98,-10.513,51.096,349,159,486,"101010101","L","V","2",4.22,5.83,4.22,120.38,1.52426600213612,23.31,0.246555625072959,1,0.882366400549221,3.69,0.517577448737072,0,0.413306413568331,3.69,0.896399951643669,0,0.72631853116895,3.5,0.137276358490615,3.5,0.198433928675988,0,0,2.14,0.0520549692085229,-0.01,0.0386753778572686
"88","IGFS2018",99,-10.727,51.251,203,166,513,"101010101","L","V","3",2.19,5.8,2.19,122.66,1.41593093446867,23.38,0.26026940940847,0,1.02333033227013,3.63,0.695787307393422,0,0.401159342617687,3.63,1.15800045145014,0,0.47262479878487,3.5,0.188534447758867,3.5,0.266926605884834,0,0,2.41,0.0921287243233296,-0.03,0.0243053322047158
"89","IGFS2018",100,-11.071,51.053,354,186,568,"101010101","L","V","8",3.06,2.7,3.06,125.88,0.920953685877141,23.94,0.262990001007044,0,0.943786502877182,3.56,0.0973374458594734,0,0,3.56,0.0922220367816035,0,0.745620373457965,3.38,0.113075333847744,3.38,0.0794225971181871,0,0.142647983529277,2.31,0.0494356707143974,-0.12,0.0183646508830698
"90","IGFS2018",101,-11.212,50.96,132,236,718,"101010101","L","V","8",2.27,3.99,2.27,130.13,1.47401399522644,24.38,0.268843798547464,1,0.989824495015977,3.63,0.662138796271192,0,0.084317456977771,3.63,0.62862624080051,0,0.928667772721805,3.5,0.220313943577698,3.5,0.147886687724694,0,0,2.04,0.0485055529516141,0,0.0311722027830917
"91","IGFS2018",102,-11.091,50.28,198,512,151,"101010101","L","V","12",1.28,2.55,1.28,142.31,2.03418479524747,26.06,0.349511372060436,0,0.738776889610567,3.5,0.229123751284916,0,0.00646329809328233,3.5,0.251239096905638,0,0.554045354275309,3.31,0.131710074731216,3.31,0.111436073741961,0,0,0.29,0.021824756409148,0.22,0.0468359867853801
"92","IGFS2018",103,-10.919,50.082,122,173,554,"101010101","L","V","8",1.85,3.74,1.85,120.69,2.51792135655793,23.38,0.423803846125844,1,1.48664189142171,4.06,0.679237987477391,0,0.196554724342589,4.06,0.750379263075282,0,1.08565817079885,3.81,0.113377383879508,3.81,0.114612775035881,0,0.10007342952038,0,0.00521688951914645,0.34,0.0162264985113102
"93","IGFS2018",104,-10.603,50.134,19,153,486,"101010101","L","V","1.3",2.18,4.1,2.18,121.38,1.39387931797291,23.31,0.244211381478842,4,0.924676952219577,3.75,0.492490751801124,0,0.113151178803193,3.75,0.416459979458444,0,1.59152071794193,3.69,0.223712991486901,3.69,0.107737556166648,0,0,2.29,0.0767237623835387,-0.08,0.0280942122229733
"94","IGFS2018",105,-9.987,50.066,60,140,450,"101010101","L","V","20",1.74,5.56,1.74,117.56,1.03991943973501,23.31,0.256590712971225,2,1.28358145088213,4.25,0.182872994928397,0,0,4.25,0.155341837606181,0,0.943104999720838,4.06,0.187383629840911,4,0.149550007160198,0,0,1.88,0.0876559666123399,-0.04,0.0246132207711971
"95","IGFS2018",106,-9.084,50.521,271,127,427,"101010101","L","V","14",1.49,4,1.49,120,13.6495924452352,23.13,2.06954064543991,0,1.3445382961086,9.06,2.67768188023564,0,37.6820234073243,9.06,42.5074683432666,0,0.615199459924965,3.38,0.936994087032938,3.38,0.5263660040778,0,0.60670848394456,0.28,0.0887719383149744,-0.03,0.130467269711597
"96","IGFS2018",107,-9.373,50.354,228,129,438,"101010101","L","I","19",1.55,7.11,1.55,115.69,4.65965448781538,24.88,3.29559134939683,0,0.757864746745073,4.13,0.950724968113689,0,0.00428571428571429,4.19,1.08364149245334,0,1.08824760371759,3.75,0.774581048799153,3.75,0.387249823106843,0,0.717916128716639,1.89,0.0643010158746763,-0.04,0.0438849350400359
"97","IGFS2018",108,-9.719,50.358,242,126,438,"101010101","L","V","19",1.79,4.07,1.79,115.81,1.10684432535754,23.13,0.262766523770107,0,1.15895404133642,4.13,0.217949770823571,0,0.00463940518509096,4.13,0.246750123404809,0,0.642632035966715,3.88,0.297650534990845,3.88,0.119834929504538,0,0.21583943301479,1.89,0.0410666672236584,-0.09,0.0267417709260007
"98","IGFS2018",109,-10.043,50.506,264,142,462,"101010101","L","V","16",20.9,5.89,20.9,119.56,1.47754185069243,23,0.236863447006544,4,0.856804393199912,3.88,0.650698353440607,0,0.202659640326348,3.88,0.675640214530355,0,1.17660202189727,3.69,0.131815107591672,3.69,0.124936057634156,0,0,2.36,0.0522719257547015,-0.04,0.028189216562038
"99","IGFS2018",110,-10.378,50.543,270,159,494,"101010101","L","V","17",1.41,3.39,1.41,119.56,1.9469920780025,22.81,0.30070091975453,2,1.49512591556716,3.88,0.624952449105944,0,0.259047984964257,3.88,0.865398321299877,0,1.19733066925348,3.69,0.166120182270131,3.69,0.191276367327511,0,0.113861586157736,2.41,0.0599987228471992,0.04,0.0310136654576789
"100","IGFS2018",111,-10.755,50.717,60,173,540,"101010101","L","V","7",1.59,3.81,1.59,122.41,1.68507720008636,23.25,0.362523260996122,0,1.71033961085347,3.88,0.188017241679984,0,0,3.88,0.203805430834471,0,1.32442910019251,3.66,0.106980968102891,3.69,0.11258621332433,0,0,2.35,0.138553196595215,-0.05,0.0658326478156566
"101","IGFS2018",112,-10.282,50.741,14,142,462,"101010101","L","V","9",1.88,3.69,1.88,118.88,0.849267797340695,22.88,0.218777345441723,2,0.868160994206488,3.88,0.466652957685362,0,0.131075111143245,3.94,0.596650244153703,0,0.995722015022836,3.69,0.229276486198432,3.69,0.107454501223166,0,0.284526783435515,2.4,0.0684757072831825,0.06,0.0243769703154379
"102","IGFS2018",113,-9.83,50.837,102,123,412,"101010101","L","V","10",1.8,3.1,1.8,116.03,1.97326697851671,22.81,0.274813429026056,3,0.969491703466372,4,0.499367665965885,0,0.00996674970013104,4,0.602920954555222,0,0.946513967522149,3.81,0.311315834835955,3.81,0.147770155147289,0,0.16579437967486,2.31,0.0697646243001302,-0.04,0.0199947775265853
"103","IGFS2018",114,-9.578,50.834,72,119,415,"101010101","L","V","10",2.34,3.44,2.34,115.75,1.10041675113077,23,0.246011503083966,3,1.29758025644153,4.06,0.511005876261845,0,0.269854517207747,4.06,0.495185009328766,0,1.09268201508436,3.845,0.280067605669225,3.81,0.192321460641052,0,0.197784480797109,2.16,0.0738336626926038,-0.06,0.0318438387199748
"104","IGFS2018",115,-9.402,50.839,126,121,415,"101010101","L","V","13",2.96,3.11,2.96,115.19,0.751819702227907,22.94,0.219007440042501,2,1.54942760528505,4.13,0.386127120104121,0,0.0113640743425905,4.13,0.466010779180244,0,1.14908937641566,3.88,0.324278390107397,3.88,0.101515081082099,0,0.28936322177539,2.09,0.106495754371797,0.02,0.0444332771218715
"105","IGFS2018",116,-8.527,51.209,220,110,378,"101010101","L","V","23",31.3,10.81,31.3,117.5,2.52837859945899,23.095,0.469375054676435,1,0.941014854871746,3.94,0.518790411871553,0,0.00679520885536112,3.94,0.36029133350572,0,0.928834312785038,3.75,0.648917249730011,3.69,0.308507928319082,0,0.665890789561234,2.47,0.306751711914111,0.03,0.0434630430283018
"106","IGFS2018",117,-8.845,51.188,258,110,390,"101010101","L","V","23",6.52,17.64,6.52,117.19,3.30914812840371,23.5,0.502607225730772,1,1.08601711964926,4.44,27.3096274612981,0,0.00558279926356299,4.44,26.8958446453913,0,0.714445262927612,4.06,0.73513886363752,4,0.32139903590707,0,0.553529502177612,1.91,0.196494238781916,-0.09,0.0470561260290858
"107","IGFS2018",118,-9.228,51.117,266,115,402,"101010101","L","V","21",7.89,12.21,7.89,115.25,1.28567881330889,22.56,0.284219618614377,1,0.938128156171778,4.25,1.75481821188613,0,0.0535086997573111,4.25,1.77570095444699,0,0.722857193726757,4.06,0.206516154222143,4.06,0.195723402678389,0,0.208273519297386,1.91,0.197917148903339,-0.03,0.0346332051935816
"108","IGFS2018",119,-9.605,51.113,245,121,415,"101010101","L","V","16",7.46,7.92,7.46,115.94,1.69143922575998,22.5,0.313800935782283,4,0.54932754341017,3.94,0.507465165602966,0,0,4,0.439269838683902,0,0.940798725730314,3.81,0.237664769071408,3.81,0.210921183479638,0,0.0535390613982573,2.34,0.219867779337673,0,0.0246555451654777
"109","IGFS2018",120,-9.807,51.248,45,111,390,"101010101","L","V","16",6.97,8.55,6.97,111.63,0.827311972809648,22.13,0.221127269724667,0,1.17632114371857,4.13,0.53785314628497,0,0.0317181329148625,4.13,0.424647752124489,0,0.420609629067022,4,0.151801484378387,4,0.112029266257232,0,0.085967826798042,2.1,0.144479258240056,-0.09,0.0238651906571659
"110","IGFS2018",121,-9.401,51.416,70,68.1,257,"101010101","S","V","19",8.38,11.09,8.38,88.25,2.0036677338327,23.44,0.265871688746098,0,0.913667840252115,4.19,0.175319466228187,0,6.87866117199617,4.19,8.49079858798999,0,0.846684200600398,4.06,1.21948045878639,4,0.192250899731147,0,1.61047086171424,1.89,0.172188511360562,0.01,0.0281701633538265
"111","IGFS2018",122,-9.235,51.264,7,119,402,"101010101","L","V","27",7.03,110.3,7.03,119.63,2.77052901021262,24.25,1.18346807104874,1,1.24466948530908,3.88,0.441631263354963,0,0.02375,3.81,0.626900442753096,0,0.588042849223902,3.38,0.166905001610325,3.38,0.13711277212828,0,0,2.16,0.104985860862628,-0.03,0.0778175341162075
"112","IGFS2018",123,-8.897,51.493,35,71.5,286,"101010101","L","V","24",5.29,9.73,5.29,90.345,1.23066119104904,23.63,0.244271633551061,0,0.42361862130743,3.94,0.147435726366329,0,0.00447213595499958,3.94,0.139651361706217,0,0.47253093702252,3.38,0.155288865797893,3.38,0.147498313667506,0,0,2.21,0.117223446224783,0.05,0.0345710875079284
"113","IGFS2018",124,-8.505,51.444,65,94,336,"101010101","L","V","24",6.68,12.12,6.68,110.81,1.06691796736255,22.44,0.331802234779537,0,0.670917460770302,3.94,0.202896551802917,0,0,3.94,0.234756426791001,0,0.864298271949284,3.5,1.34257756335443,3.5,0.171386898543174,0,1.35439401391264,2.33,0.0645920326146409,-0.03,0.0400951870832068
"114","IGFS2018",125,-8.89,50.89,205,114,402,"101010101","L","V","19",9.5,9.48,9.5,119,1.31212161695613,24.75,0.79428839661193,0,0.898304109647114,3.88,0.428605579719017,0,0.0132659230220802,3.88,0.453565605678197,0,0.74455108998416,3.38,1.31283134206709,3.31,0.205013320011635,0,1.22778268342237,2.29,0.239889019142084,0.1,0.0825709624422824
"115","IGFS2018",126,-8.909,50.625,150,126,415,"101010101","L","V","24",9.8,14.85,9.8,118.88,1.66380560070554,23.69,0.492313649463801,0,0.863978254709602,4,13.8345529066869,0,0.158816812696492,4,14.5881134038925,0,0.642426266715238,3.69,0.674321172006128,3.69,0.198679271622028,0,0.678588194174964,2.2,0.214900691747027,0.03,0.101795908128893
"116","IGFS2018",127,-8.615,50.556,12,122,427,"101010101","L","V","23",8.34,9.73,8.34,120.19,1.49279018284785,23.5,0.351767724345615,1,0.804810606463333,3.69,0.545977896082633,0,0.543384285223407,3.69,1.48307575745913,0,0.811097991098551,3.44,1.32038557807293,3.38,0.227164194723863,0,1.23838155305807,2.43,0.114326995848942,0.12,0.034370129090002
"117","IGFS2018",128,-8.493,50.705,35,117,415,"101010101","L","V","24",6.46,10.04,6.46,120.31,2.74748221374556,23.88,0.617904078105272,0,0.923514214704047,3.75,20.8239951259038,0,9.37957548951967,3.81,22.9982279712551,0,0.764250992505545,3.38,0.880813256772088,3.38,0.199803790148364,0,0.899627460575762,2.36,0.158108623631098,0.13,0.0462388219155595
"118","IGFS2018",129,-8.236,50.742,48,114,390,"101010101","L","V","17",5.54,11.16,5.54,119.5,1.36549620720524,23.38,0.24970405017952,0,1.09006205975515,3.81,1.74863451837233,0,0.00738548945875996,3.81,1.66726975081437,0,0.557871231755422,3.38,1.47695748289947,3.38,0.163030972828067,0,1.41880505633395,2.415,0.112628329305948,0.08,0.0249706091435446
"119","IGFS2018",130,-8.496,50.881,48,115,402,"101010101","L","V","20",3.64,10.5,3.64,121.69,1.31787812195498,24.06,0.385789259530021,0,0.974390267251605,3.94,0.874524582571629,0,0.0448337121399881,3.94,0.905551939476397,0,0.496541887612562,3.5,1.06612979091111,3.5,0.149619235140754,0,1.14580115315025,2.05,0.125880551161336,-0.01,0.0409351120900188
"120","IGFS2018",131,-8.259,51.093,60,109,378,"101010101","L","V","21",3.66,11.48,3.66,119.25,2.32193623845227,23.47,0.77355457788647,0,1.20830781073468,3.94,27.0075456169649,0,2.83329402404642,3.94,25.8878511759623,0,0.842700971600384,3.63,1.13236549160731,3.63,0.32230640662743,0,1.16509311399807,2.225,0.206037010324862,0.005,0.0309599708245914
"121","IGFS2018",132,-8.09,51.231,45,102.2,366,"101010101","L","V","20",3.65,11.16,3.65,115.88,1.95393347551218,24.31,0.539943252774045,0,0.803807182003214,3.88,15.7395903435987,0,0.191437305830113,3.94,17.9897678256362,0,0.867457414585137,3.5,1.43236253356287,3.38,0.208244322981608,0,1.34142434120065,0.32,0.514667110464701,-0.63,0.34496250779316
"122","IGFS2018",133,-8.145,51.482,55,89.4,324,"101010101","L","V","22",3.24,10.4,3.24,111.88,1.45260000719361,23.44,0.640172707601736,0,0.742869386054023,3.88,16.3510281645269,0,0.00331799978843292,3.88,15.9758056971998,0,1.2973471525267,3.44,1.42491031271987,3.38,0.207287221537646,0,1.43178006537683,0.21,0.179500166436795,-0.17,0.408960139580275
"123","IGFS2018",134,-7.425,51.901,41,57,271,"101010101","S","V","4",1.69,6.11,1.69,87.38,1.08497442861681,22.81,13.3685263451261,1,1.04797009534291,3.88,0.669814966004377,0,0.00656675542522213,3.88,0.715939975831127,3,1.81446715525657,3.88,0.503692040420849,3.81,0.316068513259995,0,0.511101618008609,2.11,0.0945582971275893,-0.03,0.0279353965670199
"124","IGFS2018",135,-7.057,51.848,205,67,272,"101010101","S","V","10",2.83,7.68,2.83,87.69,0.889624881559049,22.88,0.306107624756837,6,0.726550234784022,77.63,30.4187592673703,11.38,8.58418776666045,88.63,27.1770324205894,2,1.88118656072549,3.88,0.52963485070642,3.75,0.390631239508628,0,0.588637086897933,2.13,0.390918188244462,-0.09,0.129426633606651
"125","IGFS2018",136,-7.003,51.584,227,71,285,"101010101","S","I","11",3.27,8.48,3.27,87.25,1.36971238393514,22.81,0.501511821885536,1,1.08975781548557,4,0.678073458145639,0,0.0259494010148345,4,0.659350728929731,0,1.66915905677789,3.75,1.22036836743318,3.44,0.285058087576393,0,1.04768424026113,2.13,0.160544561694487,0.03,0.0422185544917083
"126","IGFS2018",137,-7.475,51.589,262,77,296,"101010101","S","V","15",2.84,7.55,2.84,88,1.02983451317024,23,0.294135651041116,1,1.25141528346985,4,13.8545637011687,0,0.0819339086317453,4,14.5407513642476,0,1.43076933818869,3.63,1.79335212911976,3.38,0.174947262503604,0,1.67827025829101,2.22,0.140917383993496,0.02,0.0365311913031661
"127","IGFS2018",138,-7.242,51.289,73,85,336,"101010101","L","V","19",2.65,6.72,2.65,115,2.58549586846413,23.81,0.544913420470037,1,0.976591341155433,3.69,1.01264014107195,0,0.0434516170596443,3.69,0.901788331669805,0,1.49414579909987,3.31,1.13471341338883,3.25,0.215523910104157,0,1.27520858909856,2.29,0.103316871476922,0.11,0.0598530748343822
"128","IGFS2018",139,-6.924,51.313,32,109,390,"101010101","L","V","16",1.95,7.12,1.95,119,1.75476894816728,23.5,0.364120417530568,0,0.721594274367074,3.63,0.476646258361638,0,0.517950774654576,3.63,0.671159251691692,0,0.922681390195698,3,0.284600747330024,3,0.174446118336367,0,0.228806439003588,2.49,0.0548126561244219,0.1,0.0289831142718179
"129","IGFS2018",140,-6.486,51.153,172,92,336,"101010101","L","V","14",3.03,8.97,3.03,112.69,1.5799754682115,23,0.254752113988394,1,1.27628121507414,4,0.188642774100251,0,0,4,0.1878076385165,0,1.48125023340525,3.69,0.782416869178072,3.63,0.223440512996038,0,0.755833040605275,2.2,0.402596424323893,0.06,0.207174454183272
"130","IGFS2018",141,-6.374,51.387,8,116,415,"101010101","L","V","15",2.43,6.53,2.43,123,1.64989359254006,24.06,0.283616421450137,0,0.768224510451895,3.88,0.403498608292001,0,0,3.88,0.737485665921733,0,0.869985078972468,3.63,1.33666354898333,3.44,0.206936223109616,0,1.38987588607535,1.91,0.166773612499302,0,0.0376537783387935
"131","IGFS2018",142,-6.016,51.408,180,97,378,"101010101","L","V","20",4.2,8.96,4.2,120.38,5.30911564974922,23.56,1.00739235841316,0,0.705894994759561,3.56,0.196411995979768,0,0,3.56,0.235633365154532,0,1.31881901420353,3.13,0.142909444938871,3.13,0.167940566587328,0,0,2.47,0.27855238609575,-0.04,0.165276376243886
"132","IGFS2018",143,-6.149,51.143,17,95,366,"101010101","L","V","24",3.38,8.55,3.38,106.5,10.6631778682013,24.91,1.95560004900055,2,1.21570566234916,3.5,0.361326709338597,0,0,3.5,0.287174460073919,0,1.15524945191061,3.06,0.928997917688464,3.06,0.191101616322028,0,0.607244585542375,2.415,0.247615639702192,0.39,0.226209094125919
"133","IGFS2018",144,-5.804,51.091,160,82,311,"101010101","L","V","21",4.94,11.5,4.94,108.06,1.64443502603195,22,0.369725192856846,0,1.00448116759237,4.13,0.40270377692568,0,0,4.13,0.435262674411622,0,1.5811249567336,3.81,1.16018132590266,3.81,0.166944325871421,0,1.21889310560028,1.98,0.113513709740106,0.1,0.130184049986217
"134","IGFS2018",145,-5.495,51.245,331,74,298,"101010101","S","V","24",5.16,9.52,5.16,85.63,0.960344537010374,22.38,0.327300942612721,2,1.3888599822762,3.94,0.272119446414641,0,0,3.94,0.391997276665705,2,1.90410038359441,3.75,0.386995375299727,3.75,0.281730682862886,0,0.282826595705816,2.15,0.17908593224322,-0.07,0.0497889323069802
"135","IGFS2018",146,-6.073,51.806,348,110,400,"101010101","L","V","32",5,11.34,5,118.06,1.95071770033367,25.44,0.947499989251365,6,0.921514760096576,4.56,45.1101199755262,0,0.152822005161543,4.63,45.6726564299702,3,2.11606061938257,4,0.827804715355463,3.88,0.446417488162135,0,0.84640307916477,1.755,0.373934084003535,-0.01,0.149544102518852
"136","IGFS2018",147,-6.212,52.016,253,75,310,"101010101","S","V","29",4.55,16.27,4.55,89.595,1.36317628449343,23.13,0.408206362448498,0,1.01683240615549,4,0.937400000435722,0,0.0130040644052892,3.94,0.425235275671648,0,0.992006822294789,3.66,1.26173533922633,3.5,0.364614489734032,0,1.7434925043836,2.66,0.369468270249406,0.09,0.450136033261034
"137","IGFS2018",148,-6.77,52.01,278,47,233,"101010101","S","V","29",5.28,15.11,5.28,81.25,2.24654744546169,21.69,0.41305820703588,1,1.18100214169306,4.5,0.67819885214521,0,0.031170034363311,4.44,0.44062377168748,0,1.26091554799418,4.06,0.355650801384467,4.06,0.338011828207215,0,0.0197248276522491,2.04,0.641954542721395,-1.06,0.672873880648714
"138","IGFS2018",149,-5.537,51.483,123,70,290,"101010101","S","V","9",4.24,6.34,4.24,87.63,2.26235560322817,22.56,0.552522763368537,1,1.05851561996176,3.69,0.802325247004105,0,0.00569494797451499,3.69,0.377359030255045,0,1.38113434719398,3.38,0.273074390659108,3.31,0.304241220417824,0,0.0866338820820344,2.61,0.0622396629955111,0.08,0.0570122282589125
"139","IGFS2018",150,-5.786,51.495,314,85,324,"101010101","L","V","5",3.91,7.65,3.91,110.38,3.00899870265312,23.69,1.29561696873378,3,1.1559160937139,4.06,0.227184039024725,0,0.0491120292346126,4.06,0.20221735846962,0,1.93524335386155,4.13,0.7818660426262,4.06,0.426044495278116,0,0.663438589430278,1.68,0.0981424334192904,-0.08,0.0570765663860017
"140","IGFS2018",151,-6.184,51.623,200,105,390,"101010101","L","V","11",3.13,6.48,3.13,114.69,1.70799278225367,22.69,0.34389115802248,6,1.22355531621652,3.75,0.758355549937145,0,0.0797177379497862,3.75,0.605490515853541,3,1.83849554694942,3.5,1.80088101745351,3.38,0.268540492479932,0,1.74119328248869,2.08,0.128206242775546,-0.08,0.0237553271812447
"141","IGFS2018",152,-6.497,51.578,340,72,298,"101010101","S","V","14",2.98,4.66,2.98,85.75,0.921186418279233,22.31,0.406670532076011,0,0.61276789743265,3.31,8.79181650122232,0,0,3.31,3.47316079818059,0,1.73317515095737,3.5,1.19496148448071,3.13,0.343928547168657,0,1.02852060935597,2.35,0.0327174996387055,0.15,0.0381520738972308
"142","IGFS2018",153,-6.468,51.708,335,69,286,"101010101","S","V","13",2.61,3.61,2.61,85.63,0.765307541911813,22.31,0.258435598489506,0,0.993698402082337,3.81,32.138872334968,0,1.69540440842535,3.81,29.5998820996169,0,1.90010606285779,3.81,0.261751266453853,3.81,0.25539910496891,0,0.175052322019006,2.31,0.137520916041147,0.09,0.0626038607269364
"143","IGFS2018",154,-7.887,50.702,46,108,392,"101010101","L","V","21",2.98,9.77,2.98,120.94,0.741444670447868,23.63,0.1895127271147,0,0.486448234371038,3.75,0.41421797893007,0,1.53536147183323,3.75,1.35899406483167,0,0.255766598602902,3.5,1.8068495967059,3.44,0.127807045368267,0,1.92325227223314,2.12,0.0618423886244722,0.02,0.0362328292864392
"144","IGFS2018",155,-7.789,50.882,40,100,378,"101010101","L","V","25",3.18,9.54,3.18,119,1.51524439098031,24.19,0.702935866985185,2,0.961183416707428,3.63,0.39168051681178,0,0.0167893775795465,3.63,0.394233468616983,0,0.592981973843937,3.38,1.66546375458564,3.13,0.183656119539557,0,1.64546402190676,2.42,0.0863183437695319,0.04,0.0453977213550847
"145","IGFS2018",156,-7.566,51.034,43,96,350,"101010101","L","V","22",3.6,9.26,3.6,116.91,1.45721615599971,23.94,0.463698746249372,0,0.933471635672884,3.56,26.8241252723146,0,0.335698441255184,3.56,22.4019752167994,0,0.833513008482755,3.25,1.71117557506571,3.06,0.172947608028878,0,1.72929919935961,2.475,0.10457413183481,0.03,0.052690235155068
"146","IGFS2018",157,-7.466,51.141,30,100,380,"101010101","L","V","25",4.22,12.23,4.22,117.75,3.62180285063226,23.69,1.58479339155359,0,0.91980587846074,3.56,0.425104820482499,0,0.0206685384142782,3.56,0.640871336199881,0,0.587214420925597,3.25,0.988541700057628,3.25,0.235691252723272,0,0.858181091942728,2.36,0.0750754581096408,0.13,0.107104157306039
"147","IGFS2018",158,-7.607,51.248,268,87,336,"101010101","L","V","27",4.98,12.9,4.98,112.88,2.07088064355217,23.69,0.748878365969764,0,0.980556313135464,3.88,0.213722783484996,0,0,3.88,0.352842079787005,0,1.03429562595056,3.63,1.24541430607653,3.38,0.264161751103021,0,1.50282119765698,2.12,0.159878747466928,0.04,0.0640303649876325
"148","IGFS2018",160,-9.344,53.134,222,36,206,"101010101","S","A","19",2.54,4.55,2.54,77.94,24.6355815400447,19.13,10.6312585189882,2,2.25771221321274,4.31,4.34611596055848,0,0.130447688264213,4.31,5.28343317614857,0,1.24915103076471,4.19,0.450234885577169,4.19,0.170491074224806,0,0.377451776908913,2.16,0.135341871937328,0.06,0.161020706646845
"149","IGFS2018",162,-9.408,53.193,280,32,193,"101010101","S","A","20",1.94,4.07,1.94,75.56,0.87800236910533,20.38,0.31411200901227,4,1.06404885646709,4.31,0.326694437147129,0,0,4.31,0.275822915265818,0,1.31682147666649,3.88,0.168468057065146,4,0.166344604420577,0,0.0326149699330885,2.3,0.047862192529012,0.1,0.0353884170331429
